{"type": "FeatureCollection", "features": [{"type": "Feature", "properties": {"network": "AK", "station_code": "A19K", "site_name": "Wainwright, AK, USA"}, "geometry": {"type": "Point", "coordinates": [-161.0713, 70.20430000000002]}}, {"type": "Feature", "properties": {"network": "AK", "station_code": "A21K", "site_name": "Barrow, AK, USA"}, "geometry": {"type": "Point", "coordinates": [-156.6175, 71.3221]}}, {"type": "Feature", "properties": {"network": "AK", "station_code": "A22K", "site_name": "Sinclair Lake, AK, USA"}, "geometry": {"type": "Point", "coordinates": [-154.9742, 71.00329999999997]}}, {"type": "Feature", "properties": {"network": "AK", "station_code": "ALC2", "site_name": "Cathedral Hills Microwave 2, AK, USA"}, "geometry": {"type": "Point", "coordinates": [-143.7959, 63.38430000000001]}}, {"type": "Feature", "properties": {"network": "AK", "station_code": "ALC3", "site_name": "Dot Lake Microwave 3, AK, USA"}, "geometry": {"type": "Point", "coordinates": [-144.0673, 63.64860000000004]}}, {"type": "Feature", "properties": {"network": "AK", "station_code": "ALC4", "site_name": "Sawmill Creek, Alcan Hwy, AK, USA"}, "geometry": {"type": "Point", "coordinates": [-145.1982, 63.89080000000004]}}, {"type": "Feature", "properties": {"network": "AK", "station_code": "ANM", "site_name": "Anvil Mountain, AK, USA"}, "geometry": {"type": "Point", "coordinates": [-165.3732, 64.56459999999997]}}, {"type": "Feature", "properties": {"network": "AK", "station_code": "ATKA", "site_name": "Atka Island, AK, USA"}, "geometry": {"type": "Point", "coordinates": [-174.19749704252973, 52.20159209865573]}}, {"type": "Feature", "properties": {"network": "AK", "station_code": "B18K", "site_name": "Kokolik River, AK, USA"}, "geometry": {"type": "Point", "coordinates": [-161.8016, 69.36409999999995]}}, {"type": "Feature", "properties": {"network": "AK", "station_code": "B20K", "site_name": "Meade River, AK, USA"}, "geometry": {"type": "Point", "coordinates": [-157.1599, 70.00790000000006]}}, {"type": "Feature", "properties": {"network": "AK", "station_code": "B22K", "site_name": "Teshekpuk Lake, AK, USA"}, "geometry": {"type": "Point", "coordinates": [-153.4196, 70.34000000000002]}}, {"type": "Feature", "properties": {"network": "AK", "station_code": "BAE", "site_name": "Barry Arm East, AK, USA"}, "geometry": {"type": "Point", "coordinates": [-148.1234, 61.13189999999998]}}, {"type": "Feature", "properties": {"network": "AK", "station_code": "BAGL", "site_name": "Bagley Icefield, AK, USA"}, "geometry": {"type": "Point", "coordinates": [-142.0915, 60.489599999999975]}}, {"type": "Feature", "properties": {"network": "AK", "station_code": "BAL", "site_name": "Baldy Mountain, AK, USA"}, "geometry": {"type": "Point", "coordinates": [-142.3462, 61.036]}}, {"type": "Feature", "properties": {"network": "AK", "station_code": "BARK", "site_name": "Barkley Ridge, AK, USA"}, "geometry": {"type": "Point", "coordinates": [-142.4934, 60.40299999999995]}}, {"type": "Feature", "properties": {"network": "AK", "station_code": "BARK", "site_name": "Barkley Ridge, AK, USA"}, "geometry": {"type": "Point", "coordinates": [-142.4931, 60.40299999999995]}}, {"type": "Feature", "properties": {"network": "AK", "station_code": "BARN", "site_name": "Barnard Glacier, AK, USA"}, "geometry": {"type": "Point", "coordinates": [-141.6622, 61.0595]}}, {"type": "Feature", "properties": {"network": "AK", "station_code": "BAT", "site_name": "Barry Arm Top, AK, USA"}, "geometry": {"type": "Point", "coordinates": [-148.1751, 61.141600000000004]}}, {"type": "Feature", "properties": {"network": "AK", "station_code": "BAW", "site_name": "Barry Arm West, AK, USA"}, "geometry": {"type": "Point", "coordinates": [-148.1501, 61.1501]}}, {"type": "Feature", "properties": {"network": "AK", "station_code": "BCP", "site_name": "Bancas Point, AK, USA"}, "geometry": {"type": "Point", "coordinates": [-139.6369, 59.95339999999996]}}, {"type": "Feature", "properties": {"network": "AK", "station_code": "BE01", "site_name": "Bethel on ground under building"}, "geometry": {"type": "Point", "coordinates": [-161.7708, 60.80429999999999]}}, {"type": "Feature", "properties": {"network": "AK", "station_code": "BE02", "site_name": "Bethel in building"}, "geometry": {"type": "Point", "coordinates": [-161.7713, 60.804500000000004]}}, {"type": "Feature", "properties": {"network": "AK", "station_code": "BERG", "site_name": "Berg Lake, AK, USA"}, "geometry": {"type": "Point", "coordinates": [-143.7004, 60.3932]}}, {"type": "Feature", "properties": {"network": "AK", "station_code": "BESE", "site_name": "Bessie Mountain, AK, USA"}, "geometry": {"type": "Point", "coordinates": [-134.8559, 58.5792]}}, {"type": "Feature", "properties": {"network": "AK", "station_code": "BGLC", "site_name": "Bering Glacier BLM Camp, AK, USA"}, "geometry": {"type": "Point", "coordinates": [-143.2841, 60.12050000000001]}}, {"type": "Feature", "properties": {"network": "AK", "station_code": "BMR", "site_name": "Bremner River, AK, USA"}, "geometry": {"type": "Point", "coordinates": [-144.6051, 60.9677]}}, {"type": "Feature", "properties": {"network": "AK", "station_code": "BPAW", "site_name": "Bear Paw Mountain, AK, USA"}, "geometry": {"type": "Point", "coordinates": [-150.9873, 64.09970000000004]}}, {"type": "Feature", "properties": {"network": "AK", "station_code": "BRG1", "site_name": "North of Black Rapids Glacier, AK, USA"}, "geometry": {"type": "Point", "coordinates": [-145.8718, 63.5979]}}, {"type": "Feature", "properties": {"network": "AK", "station_code": "BRLK", "site_name": "Bradley Lake, AK, USA"}, "geometry": {"type": "Point", "coordinates": [-150.9063, 59.751099999999994]}}, {"type": "Feature", "properties": {"network": "AK", "station_code": "BRSE", "site_name": "Bradley Lake South, AK, USA"}, "geometry": {"type": "Point", "coordinates": [-150.7414, 59.741699999999966]}}, {"type": "Feature", "properties": {"network": "AK", "station_code": "BWN", "site_name": "Browne, AK, USA"}, "geometry": {"type": "Point", "coordinates": [-149.2991, 64.17320000000001]}}, {"type": "Feature", "properties": {"network": "AK", "station_code": "C16K", "site_name": "Lisburne Hills, AK, USA"}, "geometry": {"type": "Point", "coordinates": [-165.3436, 68.27459999999999]}}, {"type": "Feature", "properties": {"network": "AK", "station_code": "C18K", "site_name": "Utukok River, AK, USA"}, "geometry": {"type": "Point", "coordinates": [-161.1943, 68.64829999999998]}}, {"type": "Feature", "properties": {"network": "AK", "station_code": "C19K", "site_name": "Lookout Ridge, AK, USA"}, "geometry": {"type": "Point", "coordinates": [-159.5874, 69.10489999999997]}}, {"type": "Feature", "properties": {"network": "AK", "station_code": "C21K", "site_name": "Knifeblade Ridge, AK, USA"}, "geometry": {"type": "Point", "coordinates": [-154.7833, 69.1565]}}, {"type": "Feature", "properties": {"network": "AK", "station_code": "C23K", "site_name": "Itkillik River, AK, USA"}, "geometry": {"type": "Point", "coordinates": [-150.6126, 69.83600000000004]}}, {"type": "Feature", "properties": {"network": "AK", "station_code": "C26K", "site_name": "Camden Bay, AK, USA"}, "geometry": {"type": "Point", "coordinates": [-144.9122, 69.91750000000002]}}, {"type": "Feature", "properties": {"network": "AK", "station_code": "C27K", "site_name": "Jago River, AK, USA"}, "geometry": {"type": "Point", "coordinates": [-143.7114, 69.62600000000003]}}, {"type": "Feature", "properties": {"network": "AK", "station_code": "CAPN", "site_name": "Captain Cook Nikiski, AK, USA"}, "geometry": {"type": "Point", "coordinates": [-151.1539, 60.7683]}}, {"type": "Feature", "properties": {"network": "AK", "station_code": "CARLO", "site_name": "Carlo Creek, AK, USA"}, "geometry": {"type": "Point", "coordinates": [-148.8094, 63.55139999999998]}}, {"type": "Feature", "properties": {"network": "AK", "station_code": "CAST", "site_name": "Castle Rocks, AK, USA"}, "geometry": {"type": "Point", "coordinates": [-152.0844, 63.41879999999999]}}, {"type": "Feature", "properties": {"network": "AK", "station_code": "CCB", "site_name": "Clear Creek Butte, AK, USA"}, "geometry": {"type": "Point", "coordinates": [-147.8053, 64.64530000000003]}}, {"type": "Feature", "properties": {"network": "AK", "station_code": "CDVT", "site_name": "Cordova Airport, AK, USA"}, "geometry": {"type": "Point", "coordinates": [-145.4696, 60.493600000000015]}}, {"type": "Feature", "properties": {"network": "AK", "station_code": "CHI", "site_name": "Chirikof Island, AK, USA"}, "geometry": {"type": "Point", "coordinates": [-155.6225, 55.82180000000002]}}, {"type": "Feature", "properties": {"network": "AK", "station_code": "CHN", "site_name": "Chernabura Island, AK, USA"}, "geometry": {"type": "Point", "coordinates": [-159.5895, 54.830999999999996]}}, {"type": "Feature", "properties": {"network": "AK", "station_code": "CHUM", "site_name": "Lake Minchumina, AK, USA"}, "geometry": {"type": "Point", "coordinates": [-152.3152, 63.88269999999995]}}, {"type": "Feature", "properties": {"network": "AK", "station_code": "CHX", "site_name": "Chaix Hills, AK, USA"}, "geometry": {"type": "Point", "coordinates": [-141.1178, 60.063099999999984]}}, {"type": "Feature", "properties": {"network": "AK", "station_code": "CNP", "site_name": "China Poot, AK, USA"}, "geometry": {"type": "Point", "coordinates": [-151.2373, 59.52510000000002]}}, {"type": "Feature", "properties": {"network": "AK", "station_code": "COLD", "site_name": "Coldfoot, AK, USA"}, "geometry": {"type": "Point", "coordinates": [-150.2038, 67.22690000000003]}}, {"type": "Feature", "properties": {"network": "AK", "station_code": "COLD", "site_name": "Coldfoot Broadband, AK, USA"}, "geometry": {"type": "Point", "coordinates": [-150.207, 67.22779999999999]}}, {"type": "Feature", "properties": {"network": "AK", "station_code": "CRQ", "site_name": "Cirque, AK, USA"}, "geometry": {"type": "Point", "coordinates": [-143.0926, 60.75230000000002]}}, {"type": "Feature", "properties": {"network": "AK", "station_code": "CTG", "site_name": "Chitna Glacier, AK, USA"}, "geometry": {"type": "Point", "coordinates": [-141.3401, 60.9649]}}, {"type": "Feature", "properties": {"network": "AK", "station_code": "CUT", "site_name": "Chulitna, AK, USA"}, "geometry": {"type": "Point", "coordinates": [-150.2625, 62.40580000000002]}}, {"type": "Feature", "properties": {"network": "AK", "station_code": "CYK", "site_name": "Cape Yakataga, AK, USA"}, "geometry": {"type": "Point", "coordinates": [-142.4872, 60.082299999999975]}}, {"type": "Feature", "properties": {"network": "AK", "station_code": "D17K", "site_name": "Noatak River, AK, USA"}, "geometry": {"type": "Point", "coordinates": [-163.0831, 67.69879999999999]}}, {"type": "Feature", "properties": {"network": "AK", "station_code": "D20K", "site_name": "Etivluk River, AK, USA"}, "geometry": {"type": "Point", "coordinates": [-156.6132, 68.71320000000001]}}, {"type": "Feature", "properties": {"network": "AK", "station_code": "D22K", "site_name": "Ayikyak River, AK, USA"}, "geometry": {"type": "Point", "coordinates": [-152.6821, 68.87989999999998]}}, {"type": "Feature", "properties": {"network": "AK", "station_code": "D24K", "site_name": "Happy Valley, AK, USA"}, "geometry": {"type": "Point", "coordinates": [-148.8233, 69.15320000000001]}}, {"type": "Feature", "properties": {"network": "AK", "station_code": "D25K", "site_name": "Kavik River, AK, USA"}, "geometry": {"type": "Point", "coordinates": [-146.37510000000003, 69.32199999999999]}}, {"type": "Feature", "properties": {"network": "AK", "station_code": "DAM1", "site_name": "Bradley Dam 1, AK, USA"}, "geometry": {"type": "Point", "coordinates": [-150.8513, 59.7554]}}, {"type": "Feature", "properties": {"network": "AK", "station_code": "DAM2", "site_name": "Bradley Dam 2, AK, USA"}, "geometry": {"type": "Point", "coordinates": [-150.8555, 59.7553]}}, {"type": "Feature", "properties": {"network": "AK", "station_code": "DCPH", "site_name": "Deception Hills, AK, USA"}, "geometry": {"type": "Point", "coordinates": [-138.2154, 59.09060000000001]}}, {"type": "Feature", "properties": {"network": "AK", "station_code": "DCPH", "site_name": "Deception Hills, AK, USA"}, "geometry": {"type": "Point", "coordinates": [-138.2139, 59.09049999999999]}}, {"type": "Feature", "properties": {"network": "AK", "station_code": "DDM", "site_name": "Donnely Dome, AK, USA"}, "geometry": {"type": "Point", "coordinates": [-145.8657, 63.786500000000004]}}, {"type": "Feature", "properties": {"network": "AK", "station_code": "DH34", "site_name": "Denali Highway 34.5 miles W of Paxson, AK, USA"}, "geometry": {"type": "Point", "coordinates": [-146.3652, 63.08579999999999]}}, {"type": "Feature", "properties": {"network": "AK", "station_code": "DH97", "site_name": "Denali Highway 35 miles E of Cantwell, AK, USA"}, "geometry": {"type": "Point", "coordinates": [-147.857, 63.266199999999955]}}, {"type": "Feature", "properties": {"network": "AK", "station_code": "DHY", "site_name": "Denali Highway, AK, USA"}, "geometry": {"type": "Point", "coordinates": [-147.3759, 63.075299999999984]}}, {"type": "Feature", "properties": {"network": "AK", "station_code": "DIV", "site_name": "Divide Microwave, AK, USA"}, "geometry": {"type": "Point", "coordinates": [-145.7749, 61.12919999999997]}}, {"type": "Feature", "properties": {"network": "AK", "station_code": "DOT", "site_name": "Dot Lake, AK, USA"}, "geometry": {"type": "Point", "coordinates": [-144.0674, 63.6487]}}, {"type": "Feature", "properties": {"network": "AK", "station_code": "E18K", "site_name": "Tukpahlearik Creek, AK, USA"}, "geometry": {"type": "Point", "coordinates": [-160.6027, 67.4213]}}, {"type": "Feature", "properties": {"network": "AK", "station_code": "E19K", "site_name": "Redstone River, AK, USA"}, "geometry": {"type": "Point", "coordinates": [-157.2316, 67.45719999999996]}}, {"type": "Feature", "properties": {"network": "AK", "station_code": "E21K", "site_name": "Killik River, AK, USA"}, "geometry": {"type": "Point", "coordinates": [-153.9721, 68.44140000000006]}}, {"type": "Feature", "properties": {"network": "AK", "station_code": "E22K", "site_name": "Anaktuvuk Pass, AK, USA"}, "geometry": {"type": "Point", "coordinates": [-151.8132, 68.13429999999998]}}, {"type": "Feature", "properties": {"network": "AK", "station_code": "E24K", "site_name": "Your Creek, AK, USA"}, "geometry": {"type": "Point", "coordinates": [-148.4868, 68.07480000000002]}}, {"type": "Feature", "properties": {"network": "AK", "station_code": "E25K", "site_name": "Arctic Village, AK, USA"}, "geometry": {"type": "Point", "coordinates": [-145.568, 68.1207]}}, {"type": "Feature", "properties": {"network": "AK", "station_code": "E27K", "site_name": "Coleen River, AK, USA"}, "geometry": {"type": "Point", "coordinates": [-141.5951, 68.18610000000001]}}, {"type": "Feature", "properties": {"network": "AK", "station_code": "ER01", "site_name": "Skyline Family Fellowship, Eagle River, AK, USA"}, "geometry": {"type": "Point", "coordinates": [-149.5412, 61.323700000000024]}}, {"type": "Feature", "properties": {"network": "AK", "station_code": "ER02", "site_name": "Eagle River Fire Station 11, Eagle River, AK, USA"}, "geometry": {"type": "Point", "coordinates": [-149.5721, 61.31660000000003]}}, {"type": "Feature", "properties": {"network": "AK", "station_code": "ER03", "site_name": "Homestead School, Eagle River (established by UAA)"}, "geometry": {"type": "Point", "coordinates": [-149.54660000000004, 61.31449999999999]}}, {"type": "Feature", "properties": {"network": "AK", "station_code": "ER04", "site_name": "Fire Lake School, Eagle River (established by UAA)"}, "geometry": {"type": "Point", "coordinates": [-149.5476, 61.3453]}}, {"type": "Feature", "properties": {"network": "AK", "station_code": "EYAK", "site_name": "Cordova Ski Area, AK, USA"}, "geometry": {"type": "Point", "coordinates": [-145.75, 60.5487]}}, {"type": "Feature", "properties": {"network": "AK", "station_code": "F15K", "site_name": "North Star Ditch, AK, USA"}, "geometry": {"type": "Point", "coordinates": [-164.6483, 65.7077]}}, {"type": "Feature", "properties": {"network": "AK", "station_code": "F18K", "site_name": "Selawik, AK, USA"}, "geometry": {"type": "Point", "coordinates": [-159.6514, 66.60009999999997]}}, {"type": "Feature", "properties": {"network": "AK", "station_code": "F20K", "site_name": "Avaraart Lake, AK, USA"}, "geometry": {"type": "Point", "coordinates": [-155.7251, 67.04859999999996]}}, {"type": "Feature", "properties": {"network": "AK", "station_code": "F21K", "site_name": "Alatna River, AK, USA"}, "geometry": {"type": "Point", "coordinates": [-153.483, 67.22210000000001]}}, {"type": "Feature", "properties": {"network": "AK", "station_code": "FA01", "site_name": "Chena-GS Fire Station, Fairbanks, AK, USA"}, "geometry": {"type": "Point", "coordinates": [-147.9371, 64.8348]}}, {"type": "Feature", "properties": {"network": "AK", "station_code": "FA02", "site_name": "Ester Fire Station, AK, USA"}, "geometry": {"type": "Point", "coordinates": [-148.009, 64.84560000000002]}}, {"type": "Feature", "properties": {"network": "AK", "station_code": "FA05", "site_name": "Denali Elem. School, Fairbanks, AK, USA"}, "geometry": {"type": "Point", "coordinates": [-147.75160000000002, 64.83929999999995]}}, {"type": "Feature", "properties": {"network": "AK", "station_code": "FA06", "site_name": "Nordale Education Center, Fairbanks, AK, USA"}, "geometry": {"type": "Point", "coordinates": [-147.6957, 64.84610000000004]}}, {"type": "Feature", "properties": {"network": "AK", "station_code": "FA07", "site_name": "Arctic Light Elem. School, Fairbanks, AK, USA"}, "geometry": {"type": "Point", "coordinates": [-147.6946, 64.8267]}}, {"type": "Feature", "properties": {"network": "AK", "station_code": "FA09", "site_name": "DNR, Fairbanks, AK, USA"}, "geometry": {"type": "Point", "coordinates": [-147.8172, 64.83770000000004]}}, {"type": "Feature", "properties": {"network": "AK", "station_code": "FA10", "site_name": "Bus Barn, Fairbanks, AK, USA"}, "geometry": {"type": "Point", "coordinates": [-147.7784, 64.81859999999999]}}, {"type": "Feature", "properties": {"network": "AK", "station_code": "FA11", "site_name": "Cold Climate Housing Res. Cntr, Fairbanks, AK, USA"}, "geometry": {"type": "Point", "coordinates": [-147.8382, 64.85360000000003]}}, {"type": "Feature", "properties": {"network": "AK", "station_code": "FA12", "site_name": "Watershed School, Fairbanks, AK, USA"}, "geometry": {"type": "Point", "coordinates": [-147.8684, 64.82690000000005]}}, {"type": "Feature", "properties": {"network": "AK", "station_code": "FALS", "site_name": "False Pass, AK, USA"}, "geometry": {"type": "Point", "coordinates": [-163.4176, 54.8564]}}, {"type": "Feature", "properties": {"network": "AK", "station_code": "FIB", "site_name": "Fire Island, AK, USA"}, "geometry": {"type": "Point", "coordinates": [-150.1775, 61.16559999999999]}}, {"type": "Feature", "properties": {"network": "AK", "station_code": "FID", "site_name": "Fidalgo, AK, USA"}, "geometry": {"type": "Point", "coordinates": [-146.5987, 60.72770000000003]}}, {"type": "Feature", "properties": {"network": "AK", "station_code": "FIRE", "site_name": "Fire Island, AK, USA"}, "geometry": {"type": "Point", "coordinates": [-150.2164, 61.1426]}}, {"type": "Feature", "properties": {"network": "AK", "station_code": "FKM2", "site_name": "Fort Knox Mine 2"}, "geometry": {"type": "Point", "coordinates": [-147.2992, 65.00189999999999]}}, {"type": "Feature", "properties": {"network": "AK", "station_code": "FYU", "site_name": "Fort Yukon, AK, USA"}, "geometry": {"type": "Point", "coordinates": [-145.2342, 66.56570000000002]}}, {"type": "Feature", "properties": {"network": "AK", "station_code": "G17K", "site_name": "Kiwalik Mountain, AK, USA"}, "geometry": {"type": "Point", "coordinates": [-160.6514, 65.50110000000001]}}, {"type": "Feature", "properties": {"network": "AK", "station_code": "G19K", "site_name": "Purcell Mountains, AK, USA"}, "geometry": {"type": "Point", "coordinates": [-157.087, 66.1434]}}, {"type": "Feature", "properties": {"network": "AK", "station_code": "G23K", "site_name": "Bananza Creek, AK, USA"}, "geometry": {"type": "Point", "coordinates": [-150.0239, 66.71079999999999]}}, {"type": "Feature", "properties": {"network": "AK", "station_code": "G24K", "site_name": "Hadweenzic River, AK, USA"}, "geometry": {"type": "Point", "coordinates": [-147.4754, 66.70040000000003]}}, {"type": "Feature", "properties": {"network": "AK", "station_code": "G27K", "site_name": "Doyon Strip, AK, USA"}, "geometry": {"type": "Point", "coordinates": [-141.6549, 66.80880000000005]}}, {"type": "Feature", "properties": {"network": "AK", "station_code": "GAMB", "site_name": "Gambell, AK, USA"}, "geometry": {"type": "Point", "coordinates": [-171.7036, 63.775800000000025]}}, {"type": "Feature", "properties": {"network": "AK", "station_code": "GCSA", "site_name": "Galena City School, AK, USA"}, "geometry": {"type": "Point", "coordinates": [-156.8792, 64.7461]}}, {"type": "Feature", "properties": {"network": "AK", "station_code": "GHO", "site_name": "Gloryhole, AK, USA"}, "geometry": {"type": "Point", "coordinates": [-148.926, 61.77100000000002]}}, {"type": "Feature", "properties": {"network": "AK", "station_code": "GIB", "site_name": "Geophysical Institute, Fairbanks, AK"}, "geometry": {"type": "Point", "coordinates": [-147.849106, 64.85980200000003]}}, {"type": "Feature", "properties": {"network": "AK", "station_code": "GLB", "site_name": "Gilahina Butte, AK, USA"}, "geometry": {"type": "Point", "coordinates": [-143.8123, 61.44170000000004]}}, {"type": "Feature", "properties": {"network": "AK", "station_code": "GLI", "site_name": "Glacier Island, AK, USA"}, "geometry": {"type": "Point", "coordinates": [-147.0959, 60.87920000000002]}}, {"type": "Feature", "properties": {"network": "AK", "station_code": "GLM", "site_name": "Gilmore Dome, AK, USA"}, "geometry": {"type": "Point", "coordinates": [-147.3975, 64.98779999999995]}}, {"type": "Feature", "properties": {"network": "AK", "station_code": "GLM", "site_name": "Gilmore Dome, AK, USA"}, "geometry": {"type": "Point", "coordinates": [-147.3999, 64.98779999999995]}}, {"type": "Feature", "properties": {"network": "AK", "station_code": "GOAT", "site_name": "Goat Mountain, AK, USA"}, "geometry": {"type": "Point", "coordinates": [-144.7292, 60.58049999999999]}}, {"type": "Feature", "properties": {"network": "AK", "station_code": "GREN", "site_name": "Ft. Greely North"}, "geometry": {"type": "Point", "coordinates": [-145.6949, 63.973800000000004]}}, {"type": "Feature", "properties": {"network": "AK", "station_code": "GRES", "site_name": "Ft. Greely South"}, "geometry": {"type": "Point", "coordinates": [-145.7281, 63.945100000000004]}}, {"type": "Feature", "properties": {"network": "AK", "station_code": "GRIN", "site_name": "Grindle Hills, AK, USA"}, "geometry": {"type": "Point", "coordinates": [-143.321, 60.280500000000025]}}, {"type": "Feature", "properties": {"network": "AK", "station_code": "GRNC", "site_name": "Granite Creek, AK, USA"}, "geometry": {"type": "Point", "coordinates": [-141.7558, 60.73149999999999]}}, {"type": "Feature", "properties": {"network": "AK", "station_code": "H16K", "site_name": "Elim, AK, USA"}, "geometry": {"type": "Point", "coordinates": [-162.239, 64.63789999999997]}}, {"type": "Feature", "properties": {"network": "AK", "station_code": "H17K", "site_name": "Granite Mountain, AK, USA"}, "geometry": {"type": "Point", "coordinates": [-159.9126, 64.93699999999998]}}, {"type": "Feature", "properties": {"network": "AK", "station_code": "H20K", "site_name": "Anotleneega Mountain, AK, USA"}, "geometry": {"type": "Point", "coordinates": [-154.8808, 65.49240000000006]}}, {"type": "Feature", "properties": {"network": "AK", "station_code": "H21K", "site_name": "Melozitna River, AK, USA"}, "geometry": {"type": "Point", "coordinates": [-152.805, 65.6571]}}, {"type": "Feature", "properties": {"network": "AK", "station_code": "H22K", "site_name": "Ishtalitna Creek, AK, USA"}, "geometry": {"type": "Point", "coordinates": [-151.3773, 65.89369999999995]}}, {"type": "Feature", "properties": {"network": "AK", "station_code": "H23K", "site_name": "Yukon River, AK, USA"}, "geometry": {"type": "Point", "coordinates": [-149.5432, 65.82509999999996]}}, {"type": "Feature", "properties": {"network": "AK", "station_code": "H24K", "site_name": "Noodor Dome, AK, USA"}, "geometry": {"type": "Point", "coordinates": [-147.8781, 65.83709999999998]}}, {"type": "Feature", "properties": {"network": "AK", "station_code": "HARP", "site_name": "HAARP, AK, USA"}, "geometry": {"type": "Point", "coordinates": [-145.1567, 62.39859999999999]}}, {"type": "Feature", "properties": {"network": "AK", "station_code": "HARP", "site_name": "HAARP, Gakona, AK, USA"}, "geometry": {"type": "Point", "coordinates": [-145.1568, 62.398699999999984]}}, {"type": "Feature", "properties": {"network": "AK", "station_code": "HDA", "site_name": "Harding Lake, AK, USA"}, "geometry": {"type": "Point", "coordinates": [-146.9477, 64.40949999999998]}}, {"type": "Feature", "properties": {"network": "AK", "station_code": "HDA", "site_name": "Harding Lake, AK, USA"}, "geometry": {"type": "Point", "coordinates": [-146.9482, 64.40910000000001]}}, {"type": "Feature", "properties": {"network": "AK", "station_code": "HIN", "site_name": "Hinchinbrook, AK, USA"}, "geometry": {"type": "Point", "coordinates": [-146.5035, 60.39600000000001]}}, {"type": "Feature", "properties": {"network": "AK", "station_code": "HIWA", "site_name": "Hiwa, AK, USA"}, "geometry": {"type": "Point", "coordinates": [-148.7787, 63.458799999999975]}}, {"type": "Feature", "properties": {"network": "AK", "station_code": "HMT", "site_name": "Hamilton, AK, USA"}, "geometry": {"type": "Point", "coordinates": [-144.2623, 60.335100000000004]}}, {"type": "Feature", "properties": {"network": "AK", "station_code": "HOM", "site_name": "Homer Trailer, AK, USA"}, "geometry": {"type": "Point", "coordinates": [-151.6515, 59.65720000000005]}}, {"type": "Feature", "properties": {"network": "AK", "station_code": "HUR", "site_name": "Hurricane, AK, USA"}, "geometry": {"type": "Point", "coordinates": [-149.63880000000003, 62.97679999999998]}}, {"type": "Feature", "properties": {"network": "AK", "station_code": "I21K", "site_name": "Tanana, AK, USA"}, "geometry": {"type": "Point", "coordinates": [-151.9822, 65.17999999999999]}}, {"type": "Feature", "properties": {"network": "AK", "station_code": "I23K", "site_name": "Minto, Yukon-Koyukuk, AK, USA"}, "geometry": {"type": "Point", "coordinates": [-149.3603, 65.14790000000002]}}, {"type": "Feature", "properties": {"network": "AK", "station_code": "I26K", "site_name": "Coal Creek Mining Camp, AK, USA"}, "geometry": {"type": "Point", "coordinates": [-143.1541, 65.3064]}}, {"type": "Feature", "properties": {"network": "AK", "station_code": "I27K", "site_name": "Kandik River, AK, USA"}, "geometry": {"type": "Point", "coordinates": [-141.6153, 65.6035]}}, {"type": "Feature", "properties": {"network": "AK", "station_code": "ISLE", "site_name": "Juniper Island, AK, USA"}, "geometry": {"type": "Point", "coordinates": [-142.3406, 60.60240000000003]}}, {"type": "Feature", "properties": {"network": "AK", "station_code": "J17K", "site_name": "VABM Dome, AK, USA"}, "geometry": {"type": "Point", "coordinates": [-159.0777, 63.396499999999975]}}, {"type": "Feature", "properties": {"network": "AK", "station_code": "J19K", "site_name": "Poorman, AK, USA"}, "geometry": {"type": "Point", "coordinates": [-155.6214, 63.99399999999998]}}, {"type": "Feature", "properties": {"network": "AK", "station_code": "J20K", "site_name": "Nowitna River, AK, USA"}, "geometry": {"type": "Point", "coordinates": [-154.1467, 64.17669999999997]}}, {"type": "Feature", "properties": {"network": "AK", "station_code": "J25K", "site_name": "Salcha River, AK, USA"}, "geometry": {"type": "Point", "coordinates": [-145.3697, 64.61299999999999]}}, {"type": "Feature", "properties": {"network": "AK", "station_code": "J26L", "site_name": "Joseph Creek, AK, USA"}, "geometry": {"type": "Point", "coordinates": [-143.5636, 64.50120000000004]}}, {"type": "Feature", "properties": {"network": "AK", "station_code": "JIS", "site_name": "Juneau Island, AK, USA"}, "geometry": {"type": "Point", "coordinates": [-134.3848, 58.275800000000025]}}, {"type": "Feature", "properties": {"network": "AK", "station_code": "JPK", "site_name": "Jack Peak, AK, USA"}, "geometry": {"type": "Point", "coordinates": [-146.5974, 61.05519999999994]}}, {"type": "Feature", "properties": {"network": "AK", "station_code": "K13K", "site_name": "Kusilvak Mountain, AK, USA"}, "geometry": {"type": "Point", "coordinates": [-164.65550000000002, 61.93309999999997]}}, {"type": "Feature", "properties": {"network": "AK", "station_code": "K15K", "site_name": "Wolf Creek Mountain, AK, USA"}, "geometry": {"type": "Point", "coordinates": [-161.5308, 62.29379999999999]}}, {"type": "Feature", "properties": {"network": "AK", "station_code": "K201", "site_name": "Anchorage, High Lat Monitoring Station, AK, USA"}, "geometry": {"type": "Point", "coordinates": [-149.871201, 61.23440200000001]}}, {"type": "Feature", "properties": {"network": "AK", "station_code": "K202", "site_name": "Anchorage, Park and Recreation"}, "geometry": {"type": "Point", "coordinates": [-149.809006, 61.22380099999999]}}, {"type": "Feature", "properties": {"network": "AK", "station_code": "K203", "site_name": "Anchorage, St Christopher Episcopal Church, AK, US"}, "geometry": {"type": "Point", "coordinates": [-149.7453, 61.22010000000001]}}, {"type": "Feature", "properties": {"network": "AK", "station_code": "K204", "site_name": "Anchorage, Signature Flight Support, AK, USA"}, "geometry": {"type": "Point", "coordinates": [-150.011505, 61.17580000000001]}}, {"type": "Feature", "properties": {"network": "AK", "station_code": "K205", "site_name": "Anchorage, ASD Data Processing Center, AK, USA"}, "geometry": {"type": "Point", "coordinates": [-149.913696, 61.19959999999998]}}, {"type": "Feature", "properties": {"network": "AK", "station_code": "K205", "site_name": "Anchorage, West High School, AK, USA"}, "geometry": {"type": "Point", "coordinates": [-149.916306, 61.19940200000001]}}, {"type": "Feature", "properties": {"network": "AK", "station_code": "K207", "site_name": "Anchorage, FCC Office, AK, USA"}, "geometry": {"type": "Point", "coordinates": [-150.00450100000003, 61.15959900000001]}}, {"type": "Feature", "properties": {"network": "AK", "station_code": "K208", "site_name": "Anchorage, Spenard Recreation Center, AK, USA"}, "geometry": {"type": "Point", "coordinates": [-149.9216, 61.17630000000006]}}, {"type": "Feature", "properties": {"network": "AK", "station_code": "K209", "site_name": "Anchorage, Scenic Park Bible Church, AK, USA"}, "geometry": {"type": "Point", "coordinates": [-149.747192, 61.18460100000001]}}, {"type": "Feature", "properties": {"network": "AK", "station_code": "K20K", "site_name": "Telida, AK, USA"}, "geometry": {"type": "Point", "coordinates": [-154.07, 63.356900000000024]}}, {"type": "Feature", "properties": {"network": "AK", "station_code": "K210", "site_name": "Anchorage, Mears Jr High School, AK, USA"}, "geometry": {"type": "Point", "coordinates": [-149.931, 61.12919999999997]}}, {"type": "Feature", "properties": {"network": "AK", "station_code": "K211", "site_name": "Anchorage, Fire Department HQ 12, AK, USA"}, "geometry": {"type": "Point", "coordinates": [-149.857803, 61.149100999999995]}}, {"type": "Feature", "properties": {"network": "AK", "station_code": "K212", "site_name": "Anchorage, BLM Office, AK, USA"}, "geometry": {"type": "Point", "coordinates": [-149.793396, 61.15560200000005]}}, {"type": "Feature", "properties": {"network": "AK", "station_code": "K213", "site_name": "Anchorage, ASD Operation Center, AK, USA"}, "geometry": {"type": "Point", "coordinates": [-149.8595, 61.11280000000002]}}, {"type": "Feature", "properties": {"network": "AK", "station_code": "K214", "site_name": "Anchorage, OMalley Fire Station, AK, USA"}, "geometry": {"type": "Point", "coordinates": [-149.7677, 61.123499999999986]}}, {"type": "Feature", "properties": {"network": "AK", "station_code": "K215", "site_name": "Anchorage, Rabbit Creek Fire Station, AK, USA"}, "geometry": {"type": "Point", "coordinates": [-149.752106, 61.08620100000001]}}, {"type": "Feature", "properties": {"network": "AK", "station_code": "K216", "site_name": "Anchorage, AT&T Surface and Borehole, AK, USA"}, "geometry": {"type": "Point", "coordinates": [-149.6867, 61.09809999999998]}}, {"type": "Feature", "properties": {"network": "AK", "station_code": "K217", "site_name": "Chugiak Fire Station, AK, USA"}, "geometry": {"type": "Point", "coordinates": [-149.515503, 61.39600000000002]}}, {"type": "Feature", "properties": {"network": "AK", "station_code": "K218", "site_name": "Palmer, National Tsunami Warning Center, AK, USA"}, "geometry": {"type": "Point", "coordinates": [-149.1332, 61.592600000000026]}}, {"type": "Feature", "properties": {"network": "AK", "station_code": "K220", "site_name": "Anchorage, Kincaid Park, AK, USA"}, "geometry": {"type": "Point", "coordinates": [-150.0552, 61.153999999999975]}}, {"type": "Feature", "properties": {"network": "AK", "station_code": "K221", "site_name": "Anchorage, St. James Orthodox Church, AK, USA"}, "geometry": {"type": "Point", "coordinates": [-149.9512, 61.1525]}}, {"type": "Feature", "properties": {"network": "AK", "station_code": "K222", "site_name": "Anchorage, Chapel by the Sea, AK, USA"}, "geometry": {"type": "Point", "coordinates": [-149.8366, 61.087599999999995]}}, {"type": "Feature", "properties": {"network": "AK", "station_code": "K223", "site_name": "Anchorage, Government Hill Elem. School, AK, USA"}, "geometry": {"type": "Point", "coordinates": [-149.8675, 61.23380000000001]}}, {"type": "Feature", "properties": {"network": "AK", "station_code": "K24K", "site_name": "Donnelly Dome, AK, USA"}, "geometry": {"type": "Point", "coordinates": [-145.7784, 63.80360000000001]}}, {"type": "Feature", "properties": {"network": "AK", "station_code": "K27K", "site_name": "Chicken, AK, USA"}, "geometry": {"type": "Point", "coordinates": [-142.0758, 64.02920000000003]}}, {"type": "Feature", "properties": {"network": "AK", "station_code": "KAI", "site_name": "Kayak Island, AK, USA"}, "geometry": {"type": "Point", "coordinates": [-144.4188, 59.92680000000003]}}, {"type": "Feature", "properties": {"network": "AK", "station_code": "KHIT", "site_name": "Khitrov Hills, AK, USA"}, "geometry": {"type": "Point", "coordinates": [-143.251, 60.44270000000003]}}, {"type": "Feature", "properties": {"network": "AK", "station_code": "KIAG", "site_name": "Kiagna River, AK, USA"}, "geometry": {"type": "Point", "coordinates": [-142.3605, 60.9231]}}, {"type": "Feature", "properties": {"network": "AK", "station_code": "KLU", "site_name": "Klutina Pass, AK, USA"}, "geometry": {"type": "Point", "coordinates": [-145.9227, 61.4924]}}, {"type": "Feature", "properties": {"network": "AK", "station_code": "KNK", "site_name": "Knik Glacier, AK, USA"}, "geometry": {"type": "Point", "coordinates": [-148.4585, 61.4131]}}, {"type": "Feature", "properties": {"network": "AK", "station_code": "KOTZ", "site_name": "Kotzebue, AK, USA"}, "geometry": {"type": "Point", "coordinates": [-162.6, 66.89509999999999]}}, {"type": "Feature", "properties": {"network": "AK", "station_code": "KTH", "site_name": "Kantishna Hills, AK, USA"}, "geometry": {"type": "Point", "coordinates": [-150.9233, 63.55270000000001]}}, {"type": "Feature", "properties": {"network": "AK", "station_code": "KULT", "site_name": "Kultieth River Mtn, AK, USA"}, "geometry": {"type": "Point", "coordinates": [-142.7234, 60.247400000000006]}}, {"type": "Feature", "properties": {"network": "AK", "station_code": "L14K", "site_name": "Kuka Creek, AK, USA"}, "geometry": {"type": "Point", "coordinates": [-162.6829, 61.34159999999998]}}, {"type": "Feature", "properties": {"network": "AK", "station_code": "L16K", "site_name": "Owhat River, AK, USA"}, "geometry": {"type": "Point", "coordinates": [-159.4747, 61.71049999999997]}}, {"type": "Feature", "properties": {"network": "AK", "station_code": "L17K", "site_name": "Donlin, AK, USA"}, "geometry": {"type": "Point", "coordinates": [-158.2972, 62.134399999999985]}}, {"type": "Feature", "properties": {"network": "AK", "station_code": "L18K", "site_name": "Granite Mountain, AK, USA"}, "geometry": {"type": "Point", "coordinates": [-156.6886, 62.21949999999999]}}, {"type": "Feature", "properties": {"network": "AK", "station_code": "L19K", "site_name": "White Mountain, AK, USA"}, "geometry": {"type": "Point", "coordinates": [-154.8543, 62.1816]}}, {"type": "Feature", "properties": {"network": "AK", "station_code": "L20K", "site_name": "Farewell, AK, USA"}, "geometry": {"type": "Point", "coordinates": [-153.8798, 62.47870000000002]}}, {"type": "Feature", "properties": {"network": "AK", "station_code": "L22K", "site_name": "Petersville, AK, USA"}, "geometry": {"type": "Point", "coordinates": [-150.7703, 62.5258]}}, {"type": "Feature", "properties": {"network": "AK", "station_code": "L26K", "site_name": "Log Cabin Wilderness Lodge, Tok, AK, USA"}, "geometry": {"type": "Point", "coordinates": [-143.3478, 63.025400000000005]}}, {"type": "Feature", "properties": {"network": "AK", "station_code": "LOGN", "site_name": "Logan Glacier, AK, USA"}, "geometry": {"type": "Point", "coordinates": [-141.0048, 60.824000000000034]}}, {"type": "Feature", "properties": {"network": "AK", "station_code": "M110", "site_name": "Denali Highway 25 miles E of Cantwell, AK, USA"}, "geometry": {"type": "Point", "coordinates": [-148.1869, 63.30549999999991]}}, {"type": "Feature", "properties": {"network": "AK", "station_code": "M11K", "site_name": "Mekoryuk, AK, USA"}, "geometry": {"type": "Point", "coordinates": [-166.2011, 60.38490000000002]}}, {"type": "Feature", "properties": {"network": "AK", "station_code": "M14K", "site_name": "Bethel, AK, USA"}, "geometry": {"type": "Point", "coordinates": [-161.96, 60.7515]}}, {"type": "Feature", "properties": {"network": "AK", "station_code": "M16K", "site_name": "Timber Creek, AK, USA"}, "geometry": {"type": "Point", "coordinates": [-158.9593, 61.022400000000005]}}, {"type": "Feature", "properties": {"network": "AK", "station_code": "M19K", "site_name": "Big River Lodge, Big River, AK, USA"}, "geometry": {"type": "Point", "coordinates": [-154.3915, 61.90369999999998]}}, {"type": "Feature", "properties": {"network": "AK", "station_code": "M20K", "site_name": "Styx River, AK, USA"}, "geometry": {"type": "Point", "coordinates": [-153.1318, 61.882300000000015]}}, {"type": "Feature", "properties": {"network": "AK", "station_code": "M23K", "site_name": "Glacier View, AK, USA"}, "geometry": {"type": "Point", "coordinates": [-147.7262, 61.7929]}}, {"type": "Feature", "properties": {"network": "AK", "station_code": "M26K", "site_name": "Nabesna, AK, USA"}, "geometry": {"type": "Point", "coordinates": [-142.9963, 62.401300000000035]}}, {"type": "Feature", "properties": {"network": "AK", "station_code": "M27K", "site_name": "Edge Creek, AK, USA"}, "geometry": {"type": "Point", "coordinates": [-141.87801, 62.35787999999998]}}, {"type": "Feature", "properties": {"network": "AK", "station_code": "MCAR", "site_name": "McCarthy VSAT, AK, USA"}, "geometry": {"type": "Point", "coordinates": [-143.024, 61.38359999999999]}}, {"type": "Feature", "properties": {"network": "AK", "station_code": "MCAR", "site_name": "McCarthy VSAT, AK, USA"}, "geometry": {"type": "Point", "coordinates": [-143.024, 61.38359999999999]}}, {"type": "Feature", "properties": {"network": "AK", "station_code": "MCK", "site_name": "McKinley Park, AK, USA"}, "geometry": {"type": "Point", "coordinates": [-148.93730000000002, 63.731799999999986]}}, {"type": "Feature", "properties": {"network": "AK", "station_code": "MCNT", "site_name": "Yak Road, Fairbanks, AK, USA"}, "geometry": {"type": "Point", "coordinates": [-147.8994, 64.84129999999999]}}, {"type": "Feature", "properties": {"network": "AK", "station_code": "MDM", "site_name": "Murphy Dome, AK, USA"}, "geometry": {"type": "Point", "coordinates": [-148.2319, 64.9602]}}, {"type": "Feature", "properties": {"network": "AK", "station_code": "MEN", "site_name": "Mentasta Lake West, AK, USA"}, "geometry": {"type": "Point", "coordinates": [-143.7952, 62.90960000000001]}}, {"type": "Feature", "properties": {"network": "AK", "station_code": "MEN1", "site_name": "Mentasta Lake 1, AK, USA"}, "geometry": {"type": "Point", "coordinates": [-143.6452, 62.92800000000001]}}, {"type": "Feature", "properties": {"network": "AK", "station_code": "MESA", "site_name": "Mesa, AK, USA"}, "geometry": {"type": "Point", "coordinates": [-141.9505, 60.17850000000001]}}, {"type": "Feature", "properties": {"network": "AK", "station_code": "MESA", "site_name": "Mesa, AK, USA"}, "geometry": {"type": "Point", "coordinates": [-141.9498, 60.17819999999997]}}, {"type": "Feature", "properties": {"network": "AK", "station_code": "MLR", "site_name": "Meier's Lake Roadhouse, AK, USA"}, "geometry": {"type": "Point", "coordinates": [-145.49700000000004, 62.81599999999998]}}, {"type": "Feature", "properties": {"network": "AK", "station_code": "MLY", "site_name": "Manley Hot Springs, AK, USA"}, "geometry": {"type": "Point", "coordinates": [-150.7442, 65.03039999999999]}}, {"type": "Feature", "properties": {"network": "AK", "station_code": "MS01", "site_name": "Burchell High School, Wasilla (established by UAA)"}, "geometry": {"type": "Point", "coordinates": [-149.4946, 61.58019999999998]}}, {"type": "Feature", "properties": {"network": "AK", "station_code": "MS02", "site_name": "Houston High School, Houston (established by UAA)"}, "geometry": {"type": "Point", "coordinates": [-149.7689, 61.59039999999999]}}, {"type": "Feature", "properties": {"network": "AK", "station_code": "MS03", "site_name": "Finger Lake School, Wasilla (established by UAA)"}, "geometry": {"type": "Point", "coordinates": [-149.305, 61.60910000000001]}}, {"type": "Feature", "properties": {"network": "AK", "station_code": "N15K", "site_name": "Kwethluk River, AK, USA"}, "geometry": {"type": "Point", "coordinates": [-160.0921, 60.168599999999984]}}, {"type": "Feature", "properties": {"network": "AK", "station_code": "N18K", "site_name": "Kilae Creek, AK, USA"}, "geometry": {"type": "Point", "coordinates": [-155.8897, 60.68010000000002]}}, {"type": "Feature", "properties": {"network": "AK", "station_code": "N19K", "site_name": "Bonanza Creek NPS repeater, AK, USA"}, "geometry": {"type": "Point", "coordinates": [-154.4838, 60.813199999999966]}}, {"type": "Feature", "properties": {"network": "AK", "station_code": "NEA", "site_name": "Nenana, AK, USA"}, "geometry": {"type": "Point", "coordinates": [-149.0706, 64.5922]}}, {"type": "Feature", "properties": {"network": "AK", "station_code": "NEA2", "site_name": "Nenana, AK, USA"}, "geometry": {"type": "Point", "coordinates": [-149.0694, 64.5928]}}, {"type": "Feature", "properties": {"network": "AK", "station_code": "NEB1", "site_name": "End of Nabesna Road, AK, USA"}, "geometry": {"type": "Point", "coordinates": [-143.0054, 62.411000000000044]}}, {"type": "Feature", "properties": {"network": "AK", "station_code": "NEB2", "site_name": "Nabesna Road 2, AK, USA"}, "geometry": {"type": "Point", "coordinates": [-143.4481, 62.56499999999999]}}, {"type": "Feature", "properties": {"network": "AK", "station_code": "NICH", "site_name": "Nichawak Mountain, AK, USA"}, "geometry": {"type": "Point", "coordinates": [-143.9713, 60.235700000000016]}}, {"type": "Feature", "properties": {"network": "AK", "station_code": "NIKH", "site_name": "Nikolski High Hill, AK, USA"}, "geometry": {"type": "Point", "coordinates": [-168.85500000000002, 52.972099999999976]}}, {"type": "Feature", "properties": {"network": "AK", "station_code": "NIKI", "site_name": "Nikiski AGDC plant, AK, USA"}, "geometry": {"type": "Point", "coordinates": [-151.3523, 60.67260000000002]}}, {"type": "Feature", "properties": {"network": "AK", "station_code": "NIKO", "site_name": "Nikolski, AK, USA"}, "geometry": {"type": "Point", "coordinates": [-168.86870000000002, 52.93780000000001]}}, {"type": "Feature", "properties": {"network": "AK", "station_code": "NKA", "site_name": "Nikiski, AK, USA"}, "geometry": {"type": "Point", "coordinates": [-151.2395, 60.7425]}}, {"type": "Feature", "properties": {"network": "AK", "station_code": "NOTK", "site_name": "Noatak, AK, USA"}, "geometry": {"type": "Point", "coordinates": [-162.97140000000002, 67.57949999999998]}}, {"type": "Feature", "properties": {"network": "AK", "station_code": "NTW1", "site_name": "Midway Lake, AK, USA"}, "geometry": {"type": "Point", "coordinates": [-142.2979, 63.23210000000006]}}, {"type": "Feature", "properties": {"network": "AK", "station_code": "NTW3", "site_name": "FAA, Northway village, AK, USA"}, "geometry": {"type": "Point", "coordinates": [-141.9353, 62.96179999999998]}}, {"type": "Feature", "properties": {"network": "AK", "station_code": "NTW4", "site_name": "Northway junction, AK, USA"}, "geometry": {"type": "Point", "coordinates": [-141.0689, 62.671900000000015]}}, {"type": "Feature", "properties": {"network": "AK", "station_code": "O14K", "site_name": "Tigyukauivet Mountain, AK, USA"}, "geometry": {"type": "Point", "coordinates": [-161.2638, 59.25329999999996]}}, {"type": "Feature", "properties": {"network": "AK", "station_code": "O18K", "site_name": "Koktuh Hills, AK, USA"}, "geometry": {"type": "Point", "coordinates": [-155.208, 59.8542]}}, {"type": "Feature", "properties": {"network": "AK", "station_code": "O19K", "site_name": "Port Alsworth, AK, USA"}, "geometry": {"type": "Point", "coordinates": [-154.3201, 60.19520000000002]}}, {"type": "Feature", "properties": {"network": "AK", "station_code": "O20K", "site_name": "Slope Mountain, AK, USA"}, "geometry": {"type": "Point", "coordinates": [-152.624, 60.08150000000002]}}, {"type": "Feature", "properties": {"network": "AK", "station_code": "P08K", "site_name": "Saint George Island, AK, USA"}, "geometry": {"type": "Point", "coordinates": [-169.5484, 56.6011]}}, {"type": "Feature", "properties": {"network": "AK", "station_code": "P16K", "site_name": "Nushagak River, AK, USA"}, "geometry": {"type": "Point", "coordinates": [-157.9906, 59.03139999999997]}}, {"type": "Feature", "properties": {"network": "AK", "station_code": "P17K", "site_name": "Kvichak River, AK, USA"}, "geometry": {"type": "Point", "coordinates": [-156.4394, 59.19530000000001]}}, {"type": "Feature", "properties": {"network": "AK", "station_code": "P23K", "site_name": "Montague Island, AK, USA"}, "geometry": {"type": "Point", "coordinates": [-147.40310000000002, 59.9979]}}, {"type": "Feature", "properties": {"network": "AK", "station_code": "PAL", "site_name": "Port Alexander, AK, USA"}, "geometry": {"type": "Point", "coordinates": [-134.6479, 56.2499]}}, {"type": "Feature", "properties": {"network": "AK", "station_code": "PAX", "site_name": "Paxson, AK, USA"}, "geometry": {"type": "Point", "coordinates": [-145.4699, 62.96990000000001]}}, {"type": "Feature", "properties": {"network": "AK", "station_code": "PIN", "site_name": "Pinnacle, AK, USA"}, "geometry": {"type": "Point", "coordinates": [-140.2525, 60.095899999999986]}}, {"type": "Feature", "properties": {"network": "AK", "station_code": "PNL", "site_name": "Peninsula, AK, USA"}, "geometry": {"type": "Point", "coordinates": [-139.4014, 59.66700000000002]}}, {"type": "Feature", "properties": {"network": "AK", "station_code": "POKR", "site_name": "Poker Flat Research Range, AK, USA"}, "geometry": {"type": "Point", "coordinates": [-147.4335, 65.11710000000004]}}, {"type": "Feature", "properties": {"network": "AK", "station_code": "PPD", "site_name": "Porcupine Dome, AK, USA"}, "geometry": {"type": "Point", "coordinates": [-145.5246, 65.5174]}}, {"type": "Feature", "properties": {"network": "AK", "station_code": "PPLA", "site_name": "Purkeypile, AK, USA"}, "geometry": {"type": "Point", "coordinates": [-152.1894, 62.896199999999965]}}, {"type": "Feature", "properties": {"network": "AK", "station_code": "PRG", "site_name": "Portage, AK, USA"}, "geometry": {"type": "Point", "coordinates": [-149.0222, 60.86260000000003]}}, {"type": "Feature", "properties": {"network": "AK", "station_code": "PS01", "site_name": "TAPS Pump Station 1, AK, USA"}, "geometry": {"type": "Point", "coordinates": [-148.6141, 70.25799999999995]}}, {"type": "Feature", "properties": {"network": "AK", "station_code": "PS04", "site_name": "TAPS Pump Station 4, AK, USA"}, "geometry": {"type": "Point", "coordinates": [-149.3568, 68.42149999999998]}}, {"type": "Feature", "properties": {"network": "AK", "station_code": "PS05", "site_name": "TAPS Pump Station 5, AK, USA"}, "geometry": {"type": "Point", "coordinates": [-150.6646, 66.81329999999997]}}, {"type": "Feature", "properties": {"network": "AK", "station_code": "PS06", "site_name": "TAPS Pump Station 6, AK, USA"}, "geometry": {"type": "Point", "coordinates": [-149.7369, 65.8545]}}, {"type": "Feature", "properties": {"network": "AK", "station_code": "PS07", "site_name": "TAPS Pump Station 7, AK, USA"}, "geometry": {"type": "Point", "coordinates": [-148.2791, 65.3106]}}, {"type": "Feature", "properties": {"network": "AK", "station_code": "PS08", "site_name": "TAPS Pump Station 8, AK, USA"}, "geometry": {"type": "Point", "coordinates": [-146.8221, 64.54220000000002]}}, {"type": "Feature", "properties": {"network": "AK", "station_code": "PS09", "site_name": "TAPS Pump Station 9, AK, USA"}, "geometry": {"type": "Point", "coordinates": [-145.7682, 63.92990000000003]}}, {"type": "Feature", "properties": {"network": "AK", "station_code": "PS10", "site_name": "TAPS Pump Station 10, AK, USA"}, "geometry": {"type": "Point", "coordinates": [-145.7684, 63.42290000000003]}}, {"type": "Feature", "properties": {"network": "AK", "station_code": "PS11", "site_name": "TAPS Pump Station 11, AK, USA"}, "geometry": {"type": "Point", "coordinates": [-145.4751, 62.07889999999998]}}, {"type": "Feature", "properties": {"network": "AK", "station_code": "PS12", "site_name": "TAPS Pump Station 12, AK, USA"}, "geometry": {"type": "Point", "coordinates": [-145.1458, 61.47489999999999]}}, {"type": "Feature", "properties": {"network": "AK", "station_code": "PTPK", "site_name": "Patty Peak Repeater, AK, USA"}, "geometry": {"type": "Point", "coordinates": [-142.4672, 61.187099999999965]}}, {"type": "Feature", "properties": {"network": "AK", "station_code": "PWL", "site_name": "Port Wells, AK, USA"}, "geometry": {"type": "Point", "coordinates": [-148.3334, 60.85840000000002]}}, {"type": "Feature", "properties": {"network": "AK", "station_code": "Q19K", "site_name": "Cape Douglas, AK, USA"}, "geometry": {"type": "Point", "coordinates": [-153.6446, 58.9287]}}, {"type": "Feature", "properties": {"network": "AK", "station_code": "Q23K", "site_name": "Middleton Island, AK, USA"}, "geometry": {"type": "Point", "coordinates": [-146.3399, 59.42959999999998]}}, {"type": "Feature", "properties": {"network": "AK", "station_code": "R109", "site_name": "West end of Denali Hwy, AK, USA"}, "geometry": {"type": "Point", "coordinates": [-148.6468, 63.395300000000006]}}, {"type": "Feature", "properties": {"network": "AK", "station_code": "R16K", "site_name": "Pilot Point, AK, USA"}, "geometry": {"type": "Point", "coordinates": [-157.5742, 57.56730000000002]}}, {"type": "Feature", "properties": {"network": "AK", "station_code": "R18K", "site_name": "Karluk, AK, USA"}, "geometry": {"type": "Point", "coordinates": [-154.4524, 57.566499999999955]}}, {"type": "Feature", "properties": {"network": "AK", "station_code": "R32K", "site_name": "Eaglecrest, AK, USA"}, "geometry": {"type": "Point", "coordinates": [-134.5181, 58.27470000000001]}}, {"type": "Feature", "properties": {"network": "AK", "station_code": "RAG", "site_name": "Ragged Mountain, AK, USA"}, "geometry": {"type": "Point", "coordinates": [-144.6773, 60.38630000000002]}}, {"type": "Feature", "properties": {"network": "AK", "station_code": "RBR", "site_name": "Rainbow Ridge, AK, USA"}, "geometry": {"type": "Point", "coordinates": [-145.6871, 63.31089999999996]}}, {"type": "Feature", "properties": {"network": "AK", "station_code": "RC01", "site_name": "Rabbit Creek, AK, USA"}, "geometry": {"type": "Point", "coordinates": [-149.739, 61.088899999999995]}}, {"type": "Feature", "properties": {"network": "AK", "station_code": "RDOG", "site_name": "Red Dog Mine, AK, USA"}, "geometry": {"type": "Point", "coordinates": [-162.908, 68.05409999999999]}}, {"type": "Feature", "properties": {"network": "AK", "station_code": "RICH", "site_name": "Donnely Dome, AK, USA"}, "geometry": {"type": "Point", "coordinates": [-145.7799, 63.76499999999999]}}, {"type": "Feature", "properties": {"network": "AK", "station_code": "RIDG", "site_name": "Independent Ridge, AK, USA"}, "geometry": {"type": "Point", "coordinates": [-144.8462, 63.73990000000004]}}, {"type": "Feature", "properties": {"network": "AK", "station_code": "RKAV", "site_name": "Rock Avalanche, AK, USA"}, "geometry": {"type": "Point", "coordinates": [-141.3478, 60.2994]}}, {"type": "Feature", "properties": {"network": "AK", "station_code": "RND", "site_name": "Reindeer, AK, USA"}, "geometry": {"type": "Point", "coordinates": [-148.8602, 63.40560000000002]}}, {"type": "Feature", "properties": {"network": "AK", "station_code": "S15K", "site_name": "Chignik Lagoon, AK, USA"}, "geometry": {"type": "Point", "coordinates": [-158.54, 56.30579999999998]}}, {"type": "Feature", "properties": {"network": "AK", "station_code": "S19K", "site_name": "Old Harbor, AK, USA"}, "geometry": {"type": "Point", "coordinates": [-153.2875, 57.222500000000004]}}, {"type": "Feature", "properties": {"network": "AK", "station_code": "S31K", "site_name": "Pelican, AK, USA"}, "geometry": {"type": "Point", "coordinates": [-136.232, 57.961599999999976]}}, {"type": "Feature", "properties": {"network": "AK", "station_code": "S32K", "site_name": "Killisnoo, AK, USA"}, "geometry": {"type": "Point", "coordinates": [-134.5763, 57.46879999999999]}}, {"type": "Feature", "properties": {"network": "AK", "station_code": "SAMH", "site_name": "Samovar Hills, AK, USA"}, "geometry": {"type": "Point", "coordinates": [-140.7828, 60.12939999999998]}}, {"type": "Feature", "properties": {"network": "AK", "station_code": "SAW", "site_name": "Sawmill, AK, USA"}, "geometry": {"type": "Point", "coordinates": [-148.3316, 61.80699999999998]}}, {"type": "Feature", "properties": {"network": "AK", "station_code": "SCM", "site_name": "Sheep Mountain, AK, USA"}, "geometry": {"type": "Point", "coordinates": [-147.329, 61.832000000000015]}}, {"type": "Feature", "properties": {"network": "AK", "station_code": "SCRK", "site_name": "Sand Creek, AK, USA"}, "geometry": {"type": "Point", "coordinates": [-143.9905, 63.976100000000024]}}, {"type": "Feature", "properties": {"network": "AK", "station_code": "SGA", "site_name": "Sherman Glacier, AK, USA"}, "geometry": {"type": "Point", "coordinates": [-145.2082, 60.5341]}}, {"type": "Feature", "properties": {"network": "AK", "station_code": "SII", "site_name": "Sitkinak Island Coast Guard, AK, USA"}, "geometry": {"type": "Point", "coordinates": [-154.18420000000003, 56.559300000000015]}}, {"type": "Feature", "properties": {"network": "AK", "station_code": "SKN", "site_name": "Skwentna, AK, USA"}, "geometry": {"type": "Point", "coordinates": [-151.5317, 61.98000000000001]}}, {"type": "Feature", "properties": {"network": "AK", "station_code": "SLK", "site_name": "Skilak Lake, AK, USA"}, "geometry": {"type": "Point", "coordinates": [-150.2231, 60.511700000000005]}}, {"type": "Feature", "properties": {"network": "AK", "station_code": "SPIA", "site_name": "St Paul Island, AK, USA"}, "geometry": {"type": "Point", "coordinates": [-170.2478, 57.176600000000015]}}, {"type": "Feature", "properties": {"network": "AK", "station_code": "SSN", "site_name": "Susitna, AK, USA"}, "geometry": {"type": "Point", "coordinates": [-150.7467, 61.46360000000001]}}, {"type": "Feature", "properties": {"network": "AK", "station_code": "SSP", "site_name": "Sunshine Point, AK, USA"}, "geometry": {"type": "Point", "coordinates": [-142.8388, 60.17909999999998]}}, {"type": "Feature", "properties": {"network": "AK", "station_code": "STON", "site_name": "Ester, AK, USA"}, "geometry": {"type": "Point", "coordinates": [-148.0212, 64.86120000000001]}}, {"type": "Feature", "properties": {"network": "AK", "station_code": "SUCK", "site_name": "Suckling Hills, AK, USA"}, "geometry": {"type": "Point", "coordinates": [-143.779, 60.07200000000004]}}, {"type": "Feature", "properties": {"network": "AK", "station_code": "SWD", "site_name": "Seward, AK, USA"}, "geometry": {"type": "Point", "coordinates": [-149.4526, 60.10430000000002]}}, {"type": "Feature", "properties": {"network": "AK", "station_code": "TABL", "site_name": "Table Mountain, AK, USA"}, "geometry": {"type": "Point", "coordinates": [-141.1443, 60.43990000000003]}}, {"type": "Feature", "properties": {"network": "AK", "station_code": "TAPE", "site_name": "Goshawk Ln, Fairbanks, AK"}, "geometry": {"type": "Point", "coordinates": [-147.789047, 64.89284499999998]}}, {"type": "Feature", "properties": {"network": "AK", "station_code": "TGL", "site_name": "Tana Glacier, AK, USA"}, "geometry": {"type": "Point", "coordinates": [-142.8292, 60.754100000000044]}}, {"type": "Feature", "properties": {"network": "AK", "station_code": "THY", "site_name": "Trims Highway, AK, USA"}, "geometry": {"type": "Point", "coordinates": [-145.7584, 63.41589999999993]}}, {"type": "Feature", "properties": {"network": "AK", "station_code": "TNA", "site_name": "Tin City, AK, USA"}, "geometry": {"type": "Point", "coordinates": [-167.9267, 65.55980000000004]}}, {"type": "Feature", "properties": {"network": "AK", "station_code": "TOK1", "site_name": "Tok Cabin 1 Tok cuttoff, AK, USA"}, "geometry": {"type": "Point", "coordinates": [-143.3452, 63.02260000000004]}}, {"type": "Feature", "properties": {"network": "AK", "station_code": "TOK2", "site_name": "Tok cutoff 2, AK, USA"}, "geometry": {"type": "Point", "coordinates": [-144.3038, 62.71430000000004]}}, {"type": "Feature", "properties": {"network": "AK", "station_code": "TOK3", "site_name": "MP 27 Tok cutoff, AK, USA"}, "geometry": {"type": "Point", "coordinates": [-144.8007, 62.52339999999999]}}, {"type": "Feature", "properties": {"network": "AK", "station_code": "TOLK", "site_name": "Toolik Lake Research Station, AK, USA"}, "geometry": {"type": "Point", "coordinates": [-149.5724, 68.64080000000001]}}, {"type": "Feature", "properties": {"network": "AK", "station_code": "TRAP", "site_name": "Trapper Creek, AK, USA"}, "geometry": {"type": "Point", "coordinates": [-150.2461, 62.33460000000002]}}, {"type": "Feature", "properties": {"network": "AK", "station_code": "TRF", "site_name": "Thorofare Mountain, AK, USA"}, "geometry": {"type": "Point", "coordinates": [-150.2893, 63.45019999999999]}}, {"type": "Feature", "properties": {"network": "AK", "station_code": "TRF", "site_name": "Thorofare Mountain, AK, USA"}, "geometry": {"type": "Point", "coordinates": [-150.2892, 63.4501]}}, {"type": "Feature", "properties": {"network": "AK", "station_code": "U33K", "site_name": "Whale Pass, AK, USA"}, "geometry": {"type": "Point", "coordinates": [-133.121, 56.1146]}}, {"type": "Feature", "properties": {"network": "AK", "station_code": "UAFE", "site_name": "UAF Engineering Building Array, AK, USA"}, "geometry": {"type": "Point", "coordinates": [-147.8181, 64.8553]}}, {"type": "Feature", "properties": {"network": "AK", "station_code": "UCM", "site_name": "Usibelli Coal Mine, AK, USA"}, "geometry": {"type": "Point", "coordinates": [-148.88860000000003, 63.91070000000003]}}, {"type": "Feature", "properties": {"network": "AK", "station_code": "UNV", "site_name": "Unalaska Valley, AK, USA"}, "geometry": {"type": "Point", "coordinates": [-166.5045, 53.845200000000006]}}, {"type": "Feature", "properties": {"network": "AK", "station_code": "V35K", "site_name": "Ketchikan, AK, USA"}, "geometry": {"type": "Point", "coordinates": [-131.615, 55.3279]}}, {"type": "Feature", "properties": {"network": "AK", "station_code": "VMT", "site_name": "Valdez Marine Terminal, AK, USA"}, "geometry": {"type": "Point", "coordinates": [-146.36800000000002, 61.083]}}, {"type": "Feature", "properties": {"network": "AK", "station_code": "VRDI", "site_name": "Verde Repeater, AK, USA"}, "geometry": {"type": "Point", "coordinates": [-143.4545, 61.22749999999999]}}, {"type": "Feature", "properties": {"network": "AK", "station_code": "WAT1", "site_name": "Susitna Watana 1, AK, USA"}, "geometry": {"type": "Point", "coordinates": [-148.5509, 62.8295]}}, {"type": "Feature", "properties": {"network": "AK", "station_code": "WAT2", "site_name": "Susitna Watana 2, AK, USA"}, "geometry": {"type": "Point", "coordinates": [-148.5855, 62.962799999999994]}}, {"type": "Feature", "properties": {"network": "AK", "station_code": "WAT3", "site_name": "Susitna Watana 3, AK, USA"}, "geometry": {"type": "Point", "coordinates": [-148.5377, 62.68119999999998]}}, {"type": "Feature", "properties": {"network": "AK", "station_code": "WAT4", "site_name": "Susitna Watana 4, AK, USA"}, "geometry": {"type": "Point", "coordinates": [-147.9421, 62.83490000000001]}}, {"type": "Feature", "properties": {"network": "AK", "station_code": "WAT5", "site_name": "Susitna Watana 5, AK, USA"}, "geometry": {"type": "Point", "coordinates": [-148.2286, 63.06240000000003]}}, {"type": "Feature", "properties": {"network": "AK", "station_code": "WAT6", "site_name": "Susitna Watana 6, AK, USA"}, "geometry": {"type": "Point", "coordinates": [-147.74, 62.58080000000001]}}, {"type": "Feature", "properties": {"network": "AK", "station_code": "WAT7", "site_name": "Susitna Watana 7, AK, USA"}, "geometry": {"type": "Point", "coordinates": [-148.8476, 62.8331]}}, {"type": "Feature", "properties": {"network": "AK", "station_code": "WAX", "site_name": "Waxell Ridge, AK, USA"}, "geometry": {"type": "Point", "coordinates": [-142.8529, 60.448]}}, {"type": "Feature", "properties": {"network": "AK", "station_code": "WRH", "site_name": "Wood River Hill, AK, USA"}, "geometry": {"type": "Point", "coordinates": [-148.0918, 64.4716]}}, {"type": "Feature", "properties": {"network": "AK", "station_code": "YAH", "site_name": "Yahtse, AK, USA"}, "geometry": {"type": "Point", "coordinates": [-141.751, 60.358300000000035]}}, {"type": "Feature", "properties": {"network": "AK", "station_code": "YAKA", "site_name": "Yakutat, AK, USA"}, "geometry": {"type": "Point", "coordinates": [-139.672, 59.512299999999975]}}, {"type": "Feature", "properties": {"network": "AK", "station_code": "YAN2", "site_name": "Yanert, AK, USA"}, "geometry": {"type": "Point", "coordinates": [-148.7749, 63.65589999999997]}}]}